[
  {
    "id": 1,
    "name": "Orange Trailhead",
    "osmId": 254226114,
    "trailheadCoords": {
      "lat": 41.0594426,
      "lng": -73.8456504
    },
    "station": "Tarrytown",
    "line": "Metro-North",
    "operator": "Metro-North",
    "stationCoords": {
      "lat": 41.076473,
      "lng": -73.864563
    },
    "walkMi": 1.5,
    "walkMin": 31,
    "transitMin": 40,
    "totalMin": 71,
    "difficulty": null,
    "lengthMi": null,
    "elevFt": null,
    "desc": null,
    "tips": null,
    "alltrails": null,
    "seasonal": false,
    "seasonNote": null
  },
  {
    "id": 5,
    "name": "The Diverting Reservoir Trail",
    "osmId": 10781179044,
    "trailheadCoords": {
      "lat": 41.3916627,
      "lng": -73.6194699
    },
    "station": "Brewster",
    "line": "Metro-North",
    "operator": "Metro-North",
    "stationCoords": {
      "lat": 41.39447,
      "lng": -73.619802
    },
    "walkMi": 0.2,
    "walkMin": 4,
    "transitMin": 75,
    "totalMin": 79,
    "difficulty": null,
    "lengthMi": null,
    "elevFt": null,
    "desc": null,
    "tips": null,
    "alltrails": null,
    "seasonal": false,
    "seasonNote": null
  },
  {
    "id": 3,
    "name": "Blue Trailhead",
    "osmId": 6988808879,
    "trailheadCoords": {
      "lat": 41.0503675,
      "lng": -73.8496215
    },
    "station": "Irvington",
    "line": "Metro-North",
    "operator": "Metro-North",
    "stationCoords": {
      "lat": 41.039993,
      "lng": -73.873083
    },
    "walkMi": 1.4,
    "walkMin": 28,
    "transitMin": 57,
    "totalMin": 85,
    "difficulty": null,
    "lengthMi": null,
    "elevFt": null,
    "desc": null,
    "tips": null,
    "alltrails": null,
    "seasonal": false,
    "seasonNote": null
  },
  {
    "id": 12,
    "name": "1st/1st Trail",
    "osmId": 13241702611,
    "trailheadCoords": {
      "lat": 41.378665,
      "lng": -73.9652454
    },
    "station": "Garrison",
    "line": "Metro-North",
    "operator": "Metro-North",
    "stationCoords": {
      "lat": 41.38178,
      "lng": -73.947202
    },
    "walkMi": 1,
    "walkMin": 19,
    "transitMin": 80,
    "totalMin": 99,
    "difficulty": null,
    "lengthMi": null,
    "elevFt": null,
    "desc": null,
    "tips": null,
    "alltrails": null,
    "seasonal": false,
    "seasonNote": null
  },
  {
    "id": 11,
    "name": "Mt Holly Sanctuary Trailhead",
    "osmId": 13069119369,
    "trailheadCoords": {
      "lat": 41.2880096,
      "lng": -73.6449248
    },
    "station": "Goldens Bridge",
    "line": "Metro-North",
    "operator": "Metro-North",
    "stationCoords": {
      "lat": 41.294338,
      "lng": -73.677655
    },
    "walkMi": 1.8,
    "walkMin": 35,
    "transitMin": 70,
    "totalMin": 105,
    "difficulty": null,
    "lengthMi": null,
    "elevFt": null,
    "desc": null,
    "tips": null,
    "alltrails": null,
    "seasonal": false,
    "seasonNote": null
  },
  {
    "id": 9,
    "name": "Rhinoceros Creek Reservation",
    "osmId": 11807104923,
    "trailheadCoords": {
      "lat": 41.3389244,
      "lng": -73.668028
    },
    "station": "Croton Falls",
    "line": "Metro-North",
    "operator": "Metro-North",
    "stationCoords": {
      "lat": 41.347722,
      "lng": -73.662269
    },
    "walkMi": 0.7,
    "walkMin": 14,
    "transitMin": 100,
    "totalMin": 114,
    "difficulty": null,
    "lengthMi": null,
    "elevFt": null,
    "desc": null,
    "tips": null,
    "alltrails": null,
    "seasonal": false,
    "seasonNote": null
  },
  {
    "id": 10,
    "name": "Rhinoceros Creek",
    "osmId": 11807114943,
    "trailheadCoords": {
      "lat": 41.3386471,
      "lng": -73.6701999
    },
    "station": "Croton Falls",
    "line": "Metro-North",
    "operator": "Metro-North",
    "stationCoords": {
      "lat": 41.347722,
      "lng": -73.662269
    },
    "walkMi": 0.7,
    "walkMin": 15,
    "transitMin": 100,
    "totalMin": 115,
    "difficulty": null,
    "lengthMi": null,
    "elevFt": null,
    "desc": null,
    "tips": null,
    "alltrails": null,
    "seasonal": false,
    "seasonNote": null
  },
  {
    "id": 8,
    "name": "Rhinoceros Creek Trail",
    "osmId": 11807062106,
    "trailheadCoords": {
      "lat": 41.3386213,
      "lng": -73.6731313
    },
    "station": "Croton Falls",
    "line": "Metro-North",
    "operator": "Metro-North",
    "stationCoords": {
      "lat": 41.347722,
      "lng": -73.662269
    },
    "walkMi": 0.8,
    "walkMin": 17,
    "transitMin": 100,
    "totalMin": 117,
    "difficulty": null,
    "lengthMi": null,
    "elevFt": null,
    "desc": null,
    "tips": null,
    "alltrails": null,
    "seasonal": false,
    "seasonNote": null
  },
  {
    "id": 6,
    "name": "Green Trail",
    "osmId": 11694939140,
    "trailheadCoords": {
      "lat": 41.333198,
      "lng": -73.6812472
    },
    "station": "Purdy's",
    "line": "Metro-North",
    "operator": "Metro-North",
    "stationCoords": {
      "lat": 41.325775,
      "lng": -73.659061
    },
    "walkMi": 1.3,
    "walkMin": 25,
    "transitMin": 97,
    "totalMin": 122,
    "difficulty": null,
    "lengthMi": null,
    "elevFt": null,
    "desc": null,
    "tips": null,
    "alltrails": null,
    "seasonal": false,
    "seasonNote": null
  },
  {
    "id": 7,
    "name": "Bell-Blakely Preserve Trail",
    "osmId": 11767838803,
    "trailheadCoords": {
      "lat": 41.3206521,
      "lng": -73.628234
    },
    "station": "Purdy's",
    "line": "Metro-North",
    "operator": "Metro-North",
    "stationCoords": {
      "lat": 41.325775,
      "lng": -73.659061
    },
    "walkMi": 1.6,
    "walkMin": 33,
    "transitMin": 97,
    "totalMin": 130,
    "difficulty": null,
    "lengthMi": null,
    "elevFt": null,
    "desc": null,
    "tips": null,
    "alltrails": null,
    "seasonal": false,
    "seasonNote": null
  },
  {
    "id": 2,
    "name": "Ives Trail & Greenway - Terrwile Park",
    "osmId": 3207989351,
    "trailheadCoords": {
      "lat": 41.3792277,
      "lng": -73.4463191
    },
    "station": "Danbury",
    "line": "Metro-North",
    "operator": "Metro-North",
    "stationCoords": {
      "lat": 41.396146,
      "lng": -73.44879
    },
    "walkMi": 1.2,
    "walkMin": 24,
    "transitMin": 114,
    "totalMin": 138,
    "difficulty": null,
    "lengthMi": null,
    "elevFt": null,
    "desc": null,
    "tips": null,
    "alltrails": null,
    "seasonal": false,
    "seasonNote": null
  },
  {
    "id": 4,
    "name": "Solomon Woods",
    "osmId": 9672128116,
    "trailheadCoords": {
      "lat": 41.2497565,
      "lng": -73.0626368
    },
    "station": "Milford",
    "line": "Metro-North",
    "operator": "Metro-North",
    "stationCoords": {
      "lat": 41.223231,
      "lng": -73.057647
    },
    "walkMi": 1.9,
    "walkMin": 37,
    "transitMin": 124,
    "totalMin": 161,
    "difficulty": null,
    "lengthMi": null,
    "elevFt": null,
    "desc": null,
    "tips": null,
    "alltrails": null,
    "seasonal": false,
    "seasonNote": null
  }
]